{
  "type": "FeatureCollection",
  "features": [
    {
      "type": "Feature",
      "properties": {
        "name": "Mars 2"
      },
      "geometry": {
        "type": "Point",
        "coordinates": [
          47,
          -45
        ]
      }
    },
    {
      "type": "Feature",
      "properties": {
        "name": "Mars 3"
      },
      "geometry": {
        "type": "Point",
        "coordinates": [
          -158,
          -45
        ]
      }
    },
    {
      "type": "Feature",
      "properties": {
        "name": "Mars 6"
      },
      "geometry": {
        "type": "Point",
        "coordinates": [
          -19.42,
          -23.9
        ]
      }
    },
    {
      "type": "Feature",
      "properties": {
        "name": "Viking 1"
      },
      "geometry": {
        "type": "Point",
        "coordinates": [
          -49.97,
          22.48
        ]
      }
    },
    {
      "type": "Feature",
      "properties": {
        "name": "Viking 2"
      },
      "geometry": {
        "type": "Point",
        "coordinates": [
          134.282101,
          47.668093
        ]
      }
    },
    {
      "type": "Feature",
      "properties": {
        "name": "Mars Polar Lander"
      },
      "geometry": {
        "type": "Point",
        "coordinates": [
          165.2,
          -76.57
        ]
      }
    },
    {
      "type": "Feature",
      "properties": {
        "name": "Pathfinder"
      },
      "geometry": {
        "type": "Point",
        "coordinates": [
          -33.55,
          19.33
        ]
      }
    },
    {
      "type": "Feature",
      "properties": {
        "name": "Beagle 2"
      },
      "geometry": {
        "type": "Point",
        "coordinates": [
          90,
          10.6
        ]
      }
    },
    {
      "type": "Feature",
      "properties": {
        "name": "Spirit"
      },
      "geometry": {
        "type": "Point",
        "coordinates": [
          175.47848,
          -14.571892
        ]
      }
    },
    {
      "type": "Feature",
      "properties": {
        "name": "Opportunity"
      },
      "geometry": {
        "type": "Point",
        "coordinates": [
          -5.526599999999917,
          -1.9462
        ]
      }
    },
    {
      "type": "Feature",
      "properties": {
        "name": "Phoenix"
      },
      "geometry": {
        "type": "Point",
        "coordinates": [
          -125.74922200000003,
          68.21883
        ]
      }
    },
    {
      "type": "Feature",
      "properties": {
        "name": "Curiosity"
      },
      "geometry": {
        "type": "Point",
        "coordinates": [
          137.4417,
          -4.5895
        ]
      }
    },
    {
      "type": "Feature",
      "properties": {
        "name": "InSight"
      },
      "geometry": {
        "type": "Point",
        "coordinates": [
          135.623,
          4.502
        ]
      }
    },
    {
      "type": "Feature",
      "properties": {
        "name": "ExoMars Schiaparelli"
      },
      "geometry": {
        "type": "Point",
        "coordinates": [
          6.207599999999957,
          -4.57
        ]
      }
    },
    {
      "type": "Feature",
      "properties": {
        "name": "ExoMars rover"
      },
      "geometry": {
        "type": "Point",
        "coordinates": [
          -25,
          18.1
        ]
      }
    },
    {
      "type": "Feature",
      "properties": {
        "name": "Mars 2020 rover"
      },
      "geometry": {
        "type": "Point",
        "coordinates": [
          77.5945,
          18.3628
        ]
      }
    },
    {
      "type": "Feature",
      "properties": {
        "name": "Zhurong"
      },
      "geometry": {
        "type": "Point",
        "coordinates": [
          109.9,
          25.1
        ]
      }
    }
  ]
}